[
  {
    "coordinates": [-54.565352, -25.972841],
    "color": "#22c55e",
    "details": {
      "district": "Barrio Centro",
      "icon": "map-pin.svg",
      "id": "M/001",
      "street": "Avenida República Argentina S/N"
    },
    "name": "Cooperativa de Wanda"
  },
  {
    "coordinates": [-54.55715, -25.970738],
    "color": "#fb7185",
    "details": {
      "district": "Barrio APSA Sur",
      "icon": "map-pin.svg",
      "id": "M/002",
      "street": "Calle Los Yerbales S/N"
    },
    "name": "Bomba 01"
  },
  {
    "coordinates": [-54.584854, -25.968143],
    "color": "#fb7185",
    "details": {
      "district": "Barrio San Martín",
      "icon": "map-pin.svg",
      "id": "M/003",
      "street": "Ruta Provincial Nº 19"
    },
    "name": "Bomba 02"
  },
  {
    "coordinates": [-54.564425, -25.980413],
    "color": "#fb7185",
    "details": {
      "district": "Barrio Cooperativa",
      "icon": "map-pin.svg",
      "id": "M/004",
      "street": "Calle Juan XXIII S/N"
    },
    "name": "Planta potabilizadora"
  }
]
